[
	{
		"Id": 1,
        "Latitude": -22.618827234831404,
        "Longitude": -42.57636812499999,
		"Descricao": "Resumo do Empreendimento 1",
    "Title": "Nome do Empreendimento",
    "Endereco": "Brasília"
    },
    {
		"Id": 2,
        "Latitude": -22.618827234831404,
        "Longitude": -42.57636812499999,
		"Descricao": "Resumo do Empreendimento 2",
    "Title": "Nome do Empreendimento",
    "Endereco": "Porto Alegre"
    },
    {
		"Id": 3,
        "Latitude": -22.57825604463875,
        "Longitude": -48.68476656249999,
		"Descricao": "Resumo do Empreendimento 3",
    "Title": "Nome do Empreendimento",
    "Endereco": "Luziânia"
    },
  	{
		"Id": 4,
    	"Latitude": -17.082777073226872,
    	"Longitude": -47.10273531249999,
		"Descricao": "Resumo do Empreendimento 4",
    "Title": "Nome do Empreendimento",
    "Endereco": "Manaus"
  	},
  	{
		"Id": 5,
    	"Latitude": -22.88936803353243,
    	"Longitude": -47.03139838867173,
		"Descricao": "Resumo do Empreendimento 5",
    "Title": "Nome do Empreendimento",
    "Endereco": "Campo Grande"
  	},
  	{
		"Id": 6,
    	"Latitude": -22.88794472694071,
    	"Longitude": -47.08066520385728,
		"Descricao": "Resumo do Empreendimento 6",
    "Title": "Nome do Empreendimento",
    "Endereco": "São Paulo"
  	},
  	{
		"Id": 7,
    	"Latitude": -22.899488894308515,
    	"Longitude": -47.06023749999986,
		"Descricao": "Resumo do Empreendimento 7",
    "Title": "Nome do Empreendimento",
    "Endereco": "Rio de Janeiro"
  	},
  	{
		"Id": 8,
    	"Latitude": -22.882132704079144,
    	"Longitude": -47.060530090490715,
		"Descricao": "Resumo do Empreendimento 8",
    "Title": "Nome do Empreendimento",
    "Endereco": "Natal"
  	},
  	{
		"Id": 9,
    	"Latitude": -22.88045235311875,
    	"Longitude": -47.05914315872184,
		"Descricao": "Resumo do Empreendimento 9",
    "Title": "Nome do Empreendimento",
    "Endereco": "Rio branco"
  	},
  	{
		"Id": 10,
    	"Latitude": 2.87877194865705,
    	"Longitude": -60.05783424072257,
		"Descricao": "Resumo do Empreendimento 10",
    "Title": "Nome do Empreendimento",
    "Endereco": "Florianópolis"
  	},
    {
    "Id": 11,
      "Latitude": -30.87877194865705,
      "Longitude": -55.05783424072257,
    "Descricao": "Resumo do Empreendimento 11",
    "Title": "Nome do Empreendimento",
    "Endereco": "Maringa"
    },
    {
    "Id": 12,
      "Latitude": -19.212355602107472,
      "Longitude": -44.20234468749999,
    "Descricao": "Resumo do Empreendimento 12",
    "Title": "Nome do Empreendimento",
    "Endereco": "Maringa"
    },
    {
    "Id": 13,
      "Latitude": -30.87877194865705,
      "Longitude": -55.05783424072257,
    "Descricao": "Resumo do Empreendimento 13",
    "Title": "Nome do Empreendimento",
    "Endereco": "Maringa"
    },
    {
    "Id": 14,
      "Latitude": -30.87877194865705,
      "Longitude": -55.05783424072257,
    "Descricao": "Resumo do Empreendimento 14",
    "Title": "Nome do Empreendimento",
    "Endereco": "Maringa"
    },
    {
    "Id": 15,
      "Latitude": -30.87877194865705,
      "Longitude": -55.05783424072257,
    "Descricao": "Resumo do Empreendimento 15",
    "Title": "Nome do Empreendimento",
    "Endereco": "Maringa"
    }
]